{
  "clinics": [
    {
      "name": "NYU Langone Fertility Center (Kips Bay)",
      "address": "660 1st Ave, New York, NY 10016",
      "website": "https://nyulangone.org/locations/fertility-center",
      "categories": {
        "cafes": [
          {
            "name": "Qahwah Valley Cafe",
            "address": "630 1st Ave, New York, NY 10016",
            "phone": "(917) 939-0628",
            "website": "https://www.qahwahvalley.com/",
            "note": "Yemeni coffee favorites like Sana’ani and Adani chai in a relaxed spot.",
            "lat": 40.7451845,
            "lon": -73.9723656
          },
          {
            "name": "Charlotte Cafe",
            "address": "605 2nd Ave, New York, NY 10016",
            "phone": "(347) 318-7107",
            "website": "https://www.instagram.com/charlottecafeofficial/",
            "note": "Cozy neighborhood café for espresso drinks, pastries, and light bites.",
            "lat": 40.744291,
            "lon": -73.9763347
          },
          {
            "name": "Gold Coffee",
            "address": "491 3rd Ave, New York, NY 10016",
            "phone": "",
            "website": "https://www.instagram.com/the_gold_coffee_official/",
            "note": "Bright Murray Hill coffee bar; quick grab-and-go near the clinic.",
            "lat": 40.7451244,
            "lon": -73.9783409
          }
        ],
        "restaurants": [
          {
            "name": "Garlic New York Pizza Bar",
            "address": "629 2nd Ave, New York, NY 10016",
            "phone": "(646) 559-9500",
            "website": "https://www.garlicnewyorkpizza.com/",
            "note": "Neighborhood pizzeria known for garlicky pies and Sicilian slices.",
            "lat": 40.7451809,
            "lon": -73.975951
          },
          {
            "name": "Hole in the Wall – Murray Hill",
            "address": "445 E 35th St, New York, NY 10016",
            "phone": "(646) 858-0401",
            "website": "https://holeinthewallnyc.com/murray-hill",
            "note": "Australian-inspired café/restaurant at the American Copper Buildings—brunch through dinner.",
            "lat": 40.7442668,
            "lon": -73.9723584
          },
          {
            "name": "Little Alley",
            "address": "550 3rd Ave, New York, NY 10016",
            "phone": "(646) 998-3976",
            "website": "https://www.littlealley.nyc/",
            "note": "Beloved Shanghainese spot—don’t miss the soup dumplings and noodles.",
            "lat": 40.747425,
            "lon": -73.9772514
          },
          {
            "name": "Lena’s Italian Kitchen (Kips Bay)",
            "address": "551 2nd Ave, New York, NY 10016",
            "phone": "(646) 846-5362",
            "website": "https://www.lenasitaliankitchen.com/",
            "note": "Comfort Italian pastas, parm heroes, and salads—easy for takeout.",
            "lat": 40.7426423,
            "lon": -73.9777385
          }
        ],
        "pizza_bagels": [],
        "hidden_gems": [
          {
            "name": "Chelsea Market",
            "address": "75 9th Ave, New York, NY 10011",
            "phone": "",
            "website": "https://www.chelseamarket.com/",
            "note": "Iconic indoor food & retail hall—perfect for grazing and gift shopping.",
            "lat": 40.7420513,
            "lon": -74.0048973
          },
          {
            "name": "Vintage India NYC",
            "address": "132 Lexington Ave, New York, NY 10016",
            "phone": "(212) 213-0080",
            "website": "https://vintageindianyc.com/",
            "note": "South Asian formalwear, kurtas, and accessories—great for special occasions.",
            "lat": 40.7431166,
            "lon": -73.9824339
          },
          {
            "name": "TTH Vintage Boutique (NoMad)",
            "address": "40 W 25th St, New York, NY 10010",
            "phone": "(212) 206-1174",
            "website": "https://www.tthvintageboutique.org/",
            "note": "Nonprofit vintage boutique; proceeds support programs for homeless mothers.",
            "lat": 40.7436045,
            "lon": -73.9910607
          },
          {
            "name": "Artisans of New York (Seasonal @ Bryant Park Holiday Shops)",
            "address": "41 W 40th St, New York, NY 10018",
            "phone": "(631) 831-1831",
            "website": "https://www.artisansofny.com/",
            "note": "Glass art & gift kiosk at the Holiday Shops (typically Oct–Jan).",
            "lat": 40.7538161,
            "lon": -73.9843175
          },
          {
            "name": "Rizzoli Bookstore (NoMad)",
            "address": "1133 Broadway, New York, NY 10010",
            "phone": "(212) 759-2424",
            "website": "https://www.rizzolibookstore.com/",
            "note": "Gorgeous flagship bookstore for art, design, and illustrated titles.",
            "lat": 40.7435762,
            "lon": -73.9892435
          },
          {
            "name": "Vintage Thrift Shop (Gramercy)",
            "address": "286 3rd Ave, New York, NY 10010",
            "phone": "(212) 871-0777",
            "website": "https://www.vintagethriftshop.org/",
            "note": "Nonprofit thrift with clothing, housewares, and vintage finds.",
            "lat": 40.7384551,
            "lon": -73.9836479
          }
        ],
        "broadway_comedy": [
          {
            "name": "TKTS Times Square (under the Red Steps)",
            "address": "200 W 47th St, New York, NY 10036",
            "phone": "(212) 912-9770",
            "website": "https://www.tdf.org/discount-ticket-programs/tkts-by-tdf/tkts-live/",
            "note": "Same-day discounted Broadway tickets.",
            "lat": 40.759195,
            "lon": -73.984833
          }
        ],
        "iconic": [
          {
            "name": "Edge (Hudson Yards)",
            "address": "30 Hudson Yards, New York, NY 10001",
            "phone": "(332) 204-8500",
            "website": "https://www.edgenyc.com/",
            "note": "100-story outdoor sky deck with a glass floor and sweeping views.",
            "lat": 40.7539277,
            "lon": -74.0005544
          },
          {
            "name": "Central Park",
            "address": "59th–110th St, Fifth Ave–Central Park West, New York, NY",
            "phone": "(212) 310-6600",
            "website": "https://www.centralparknyc.org/",
            "note": "NYC’s iconic 843-acre park with lawns, lakes, and scenic loops."
          },
          {
            "name": "Statue of Liberty & Ellis Island (Statue City Cruises)",
            "address": "Battery Park, New York, NY",
            "website": "https://www.cityexperiences.com/new-york/city-cruises/statue/",
            "lat": 40.702786,
            "lon": -74.0157731
          },
          {
            "name": "9/11 Memorial & Museum",
            "address": "180 Greenwich St, New York, NY",
            "website": "https://www.911memorial.org",
            "lat": 40.7113675,
            "lon": -74.0132704
          },
          {
            "name": "NYC Ferry (Harbor sightseeing)",
            "address": "Multiple piers citywide",
            "website": "https://www.ferry.nyc"
          },
          {
            "name": "Big Bus Tours NYC (Hop-on Hop-off)",
            "address": "Citywide stops",
            "website": "https://www.bigbustours.com/new-york"
          },
          {
            "name": "TopView Sightseeing (Hop-on Hop-off)",
            "address": "Citywide stops",
            "website": "https://topviewnyc.com"
          },
          {
            "name": "High Line",
            "address": "Gansevoort St to W 34th St, New York, NY",
            "website": "https://www.thehighline.org",
            "note": "Elevated park with art, gardens, and Hudson River views."
          },
          {
            "name": "Times Square",
            "address": "Broadway & 7th Ave, New York, NY",
            "website": "https://www.timessquarenyc.org",
            "note": "Neon lights and giant screens—NYC’s bustling crossroads.",
            "lat": 40.7536955,
            "lon": -73.988712
          },
          {
            "name": "Empire State Building",
            "address": "20 W 34th St, New York, NY 10001",
            "website": "https://www.esbnyc.com",
            "note": "Iconic art-deco skyscraper with observation decks.",
            "lat": 40.7486538,
            "lon": -73.9853043
          },
          {
            "name": "Rockefeller Center",
            "address": "45 Rockefeller Plaza, New York, NY 10111",
            "website": "https://www.rockefellercenter.com",
            "note": "Home to Top of the Rock, Radio City, and the holiday tree.",
            "lat": 40.7592576,
            "lon": -73.9799569
          }
        ]
      },
      "lat": 40.7457441,
      "lon": -73.971953
    },
    {
      "name": "CCRM New York",
      "address": "810 Seventh Ave, New York, NY 10019",
      "website": "https://www.ccrmivf.com/location/new-york",
      "categories": {
        "cafes": [
          {
            "name": "Blue Bottle Coffee",
            "address": "1 Rockefeller Plaza, New York, NY",
            "phone": "(510) 653-3394",
            "website": "https://bluebottlecoffee.com",
            "lat": 40.7579519,
            "lon": -73.9789482
          },
          {
            "name": "Gregorys Coffee",
            "address": "874 6th Ave, New York, NY",
            "phone": "(212) 920-4252",
            "website": "https://gregoryscoffee.com",
            "lat": 40.7477274,
            "lon": -73.9890629
          }
        ],
        "restaurants": [
          {
            "name": "Serafina (Times Square)",
            "address": "224 W 49th St, New York, NY",
            "phone": "(212) 247-1000",
            "website": "https://serafinarestaurant.com",
            "lat": 40.7609769,
            "lon": -73.9855279
          },
          {
            "name": "Carmine’s Italian Restaurant",
            "address": "200 W 44th St, New York, NY",
            "phone": "(212) 221-3800",
            "website": "https://carminesnyc.com",
            "lat": 40.7575108,
            "lon": -73.9867126
          },
          {
            "name": "Ellen’s Stardust Diner (Broadway-themed)",
            "address": "1650 Broadway, New York, NY",
            "phone": "(212) 956-5151",
            "website": "https://www.ellensstardustdiner.com",
            "lat": 40.7618484,
            "lon": -73.9835031
          }
        ],
        "pizza_bagels": [
          {
            "name": "John’s of Times Square",
            "address": "260 W 44th St, New York, NY",
            "phone": "(212) 391-7560",
            "website": "https://johnspizzerianyc.com",
            "lat": 40.7582345,
            "lon": -73.9884017
          },
          {
            "name": "Best Bagel & Coffee",
            "address": "225 W 35th St, New York, NY",
            "phone": "(212) 564-4409",
            "website": "https://bestbagelandcoffee.com",
            "lat": 40.7523015,
            "lon": -73.9910004
          }
        ],
        "hidden_gems": [
          {
            "name": "MoMA Design Store (Midtown)",
            "address": "44 W 53rd St, New York, NY",
            "phone": "(212) 767-1050",
            "website": "https://store.moma.org",
            "lat": 40.7611682,
            "lon": -73.9779863
          },
          {
            "name": "Artists & Fleas (Chelsea Market)",
            "address": "88 10th Ave (inside), New York, NY",
            "website": "https://www.artistsandfleas.com/chelsea-market"
          },
          {
            "name": "NY Transit Museum Store (Grand Central)",
            "address": "89 E 42nd St, New York, NY",
            "phone": "(212) 878-0106",
            "website": "https://shop.nytransitmuseumstore.com",
            "lat": 40.7526944,
            "lon": -73.977253
          },
          {
            "name": "Levain Bakery (Rockefeller Center)",
            "address": "30 Rockefeller Plaza (Concourse), New York, NY",
            "phone": "(212) 834-2100",
            "website": "https://levainbakery.com"
          },
          {
            "name": "Magnolia Bakery (Rockefeller Center)",
            "address": "1240 6th Ave, New York, NY",
            "phone": "(212) 767-1123",
            "website": "https://www.magnoliabakery.com",
            "lat": 40.7592602,
            "lon": -73.9805486
          },
          {
            "name": "Modern Bread & Bagel (100% GF)",
            "address": "472 Columbus Ave, New York, NY",
            "phone": "(646) 998-4600",
            "website": "https://modernbreadandbagel.com",
            "lat": 40.7844333,
            "lon": -73.9740436
          }
        ],
        "broadway_comedy": [
          {
            "name": "TKTS Times Square (under the Red Steps)",
            "address": "200 W 47th St, New York, NY 10036",
            "phone": "(212) 912-9770",
            "website": "https://www.tdf.org/discount-ticket-programs/tkts-by-tdf/tkts-live/",
            "note": "5–10 minutes’ walk; same-day discounts.",
            "lat": 40.759195,
            "lon": -73.984833
          },
          {
            "name": "Broadway Comedy Club",
            "address": "318 W 53rd St, New York, NY",
            "phone": "(212) 757-2323",
            "website": "https://www.broadwaycomedyclub.com",
            "lat": 40.7644391,
            "lon": -73.9856707
          }
        ],
        "activities": [
          {
            "name": "Rockefeller Center",
            "address": "30 Rockefeller Plaza, New York, NY",
            "website": "https://rockefellercenter.com",
            "lat": 40.7591232,
            "lon": -73.979556
          },
          {
            "name": "Times Square",
            "address": "Broadway & 7th Ave, New York, NY",
            "website": "https://timessquarenyc.org",
            "lat": 40.7536955,
            "lon": -73.988712
          }
        ],
        "iconic": [
          {
            "name": "MoMA – Museum of Modern Art",
            "address": "11 W 53rd St, New York, NY",
            "website": "https://www.moma.org",
            "lat": 40.7616124,
            "lon": -73.9774992
          },
          {
            "name": "American Museum of Natural History",
            "address": "200 Central Park West, New York, NY",
            "website": "https://www.amnh.org",
            "lat": 40.7813974,
            "lon": -73.9733215
          },
          {
            "name": "The Metropolitan Museum of Art",
            "address": "1000 5th Ave, New York, NY",
            "website": "https://www.metmuseum.org",
            "lat": 40.7794396,
            "lon": -73.9633825
          },
          {
            "name": "Statue of Liberty & Ellis Island (Statue City Cruises)",
            "address": "Battery Park, New York, NY",
            "website": "https://www.cityexperiences.com/new-york/city-cruises/statue/",
            "lat": 40.702786,
            "lon": -74.0157731
          },
          {
            "name": "Big Bus Tours NYC (Hop-on Hop-off)",
            "address": "Citywide stops",
            "website": "https://www.bigbustours.com/new-york"
          },
          {
            "name": "TopView Sightseeing (Hop-on Hop-off)",
            "address": "Citywide stops",
            "website": "https://topviewnyc.com"
          },
          {
            "name": "High Line",
            "address": "Gansevoort St to W 34th St, New York, NY",
            "website": "https://www.thehighline.org",
            "note": "Elevated park with art, gardens, and Hudson River views."
          },
          {
            "name": "The Edge (Hudson Yards)",
            "address": "30 Hudson Yards, New York, NY 10001",
            "website": "https://www.edgenyc.com",
            "note": "100-story outdoor sky deck with glass floor and panoramic views.",
            "lat": 40.7539277,
            "lon": -74.0005544
          },
          {
            "name": "Times Square",
            "address": "Broadway & 7th Ave, New York, NY",
            "website": "https://www.timessquarenyc.org",
            "note": "Neon lights and giant screens—NYC’s bustling crossroads.",
            "lat": 40.7536955,
            "lon": -73.988712
          },
          {
            "name": "Empire State Building",
            "address": "20 W 34th St, New York, NY 10001",
            "website": "https://www.esbnyc.com",
            "note": "Iconic art-deco skyscraper with observation decks.",
            "lat": 40.7486538,
            "lon": -73.9853043
          },
          {
            "name": "Rockefeller Center",
            "address": "45 Rockefeller Plaza, New York, NY 10111",
            "website": "https://www.rockefellercenter.com",
            "note": "Home to Top of the Rock, Radio City, and the holiday tree.",
            "lat": 40.7592576,
            "lon": -73.9799569
          }
        ]
      },
      "lat": 40.7628709,
      "lon": -73.9825242
    },
    {
      "name": "RMA of New York",
      "address": "635 Madison Ave, New York, NY 10022",
      "website": "https://rmanetwork.com/location/new-york",
      "categories": {
        "cafes": [
          {
            "name": "Joe Coffee Company",
            "address": "1045 Lexington Ave, New York, NY",
            "phone": "(212) 510-8744",
            "website": "https://joecoffeecompany.com",
            "lat": 40.7720126,
            "lon": -73.9607854
          },
          {
            "name": "Ralph’s Coffee",
            "address": "888 Madison Ave, New York, NY",
            "phone": "(212) 434-8000",
            "website": "https://ralphlauren.com/ralphs-coffee",
            "lat": 40.7716285,
            "lon": -73.9657301
          }
        ],
        "restaurants": [
          {
            "name": "Avra Madison Estiatorio",
            "address": "14 E 60th St, New York, NY",
            "phone": "(212) 937-0100",
            "website": "https://theavragroup.com",
            "lat": 40.7643033,
            "lon": -73.9716079
          },
          {
            "name": "Quality Bistro",
            "address": "120 W 55th St, New York, NY",
            "phone": "(212) 433-3330",
            "website": "https://qualitybistro.com",
            "lat": 40.7632322,
            "lon": -73.978856
          },
          {
            "name": "Fumo UES",
            "address": "1459 York Ave, New York, NY",
            "phone": "(212) 288-3866",
            "website": "https://fumorestaurant.com",
            "lat": 40.770414,
            "lon": -73.9513952
          }
        ],
        "pizza_bagels": [
          {
            "name": "Prince Street Pizza",
            "address": "27 Prince St, New York, NY",
            "phone": "(212) 966-4100",
            "website": "https://www.princestpizza.com",
            "lat": 40.7230823,
            "lon": -73.9945374
          },
          {
            "name": "Pick A Bagel",
            "address": "1475 2nd Ave, New York, NY",
            "phone": "(212) 717-6606",
            "website": "https://pickabagel.net",
            "lat": 40.7719838,
            "lon": -73.9564121
          }
        ],
        "hidden_gems": [
          {
            "name": "NY Transit Museum Store (Grand Central)",
            "address": "89 E 42nd St, New York, NY",
            "phone": "(212) 878-0106",
            "website": "https://shop.nytransitmuseumstore.com",
            "lat": 40.7526944,
            "lon": -73.977253
          },
          {
            "name": "MoMA Design Store (Midtown)",
            "address": "44 W 53rd St, New York, NY",
            "phone": "(212) 767-1050",
            "website": "https://store.moma.org",
            "lat": 40.7611682,
            "lon": -73.9779863
          },
          {
            "name": "Pink Olive",
            "address": "30 E 9th St, New York, NY",
            "phone": "(212) 780-0030",
            "website": "https://pinkolive.com",
            "lat": 40.7319966,
            "lon": -73.9941487
          },
          {
            "name": "Greenwich Letterpress",
            "address": "15 Christopher St, New York, NY",
            "phone": "(212) 219-8169",
            "website": "https://greenwichletterpress.com",
            "lat": 40.7340651,
            "lon": -74.0005609
          },
          {
            "name": "Levain Bakery (UES)",
            "address": "1484 3rd Ave, New York, NY",
            "phone": "(917) 470-9041",
            "website": "https://levainbakery.com",
            "lat": 40.7773502,
            "lon": -73.9552986
          },
          {
            "name": "Modern Bread & Bagel (100% GF)",
            "address": "472 Columbus Ave, New York, NY",
            "phone": "(646) 998-4600",
            "website": "https://modernbreadandbagel.com",
            "lat": 40.7844333,
            "lon": -73.9740436
          },
          {
            "name": "Senza Gluten Café & Bakery (100% GF)",
            "address": "171 Sullivan St, New York, NY",
            "phone": "(646) 692-6424",
            "website": "https://senzaglutennyc.com",
            "lat": 40.7279573,
            "lon": -74.000839
          }
        ],
        "broadway_comedy": [
          {
            "name": "TKTS Lincoln Center (David Rubenstein Atrium)",
            "address": "61 W 62nd St, New York, NY 10023",
            "phone": "(212) 912-9770",
            "website": "https://www.tdf.org/discount-ticket-programs/tkts-by-tdf/tkts-live/",
            "note": "Closest TKTS to UES; easy walk/cab.",
            "lat": 40.7711324,
            "lon": -73.982845
          },
          {
            "name": "Comic Strip Live",
            "address": "1568 2nd Ave, New York, NY",
            "phone": "(212) 861-9386",
            "website": "https://comicstriplive.com",
            "lat": 40.7748581,
            "lon": -73.9536956
          }
        ],
        "activities": [
          {
            "name": "Central Park (South Entrances)",
            "address": "59th St at 5th Ave, New York, NY",
            "website": "https://www.centralparknyc.org"
          },
          {
            "name": "The Plaza Food Hall",
            "address": "1 W 59th St (Lower Level), New York, NY",
            "website": "https://www.theplazany.com"
          }
        ],
        "iconic": [
          {
            "name": "MoMA – Museum of Modern Art",
            "address": "11 W 53rd St, New York, NY",
            "website": "https://www.moma.org",
            "lat": 40.7616124,
            "lon": -73.9774992
          },
          {
            "name": "American Museum of Natural History",
            "address": "200 Central Park West, New York, NY",
            "website": "https://www.amnh.org",
            "lat": 40.7813974,
            "lon": -73.9733215
          },
          {
            "name": "The Metropolitan Museum of Art",
            "address": "1000 5th Ave, New York, NY",
            "website": "https://www.metmuseum.org",
            "lat": 40.7794396,
            "lon": -73.9633825
          },
          {
            "name": "Statue of Liberty & Ellis Island (Statue City Cruises)",
            "address": "Battery Park, New York, NY",
            "website": "https://www.cityexperiences.com/new-york/city-cruises/statue/",
            "lat": 40.702786,
            "lon": -74.0157731
          },
          {
            "name": "Big Bus Tours NYC (Hop-on Hop-off)",
            "address": "Citywide stops",
            "website": "https://www.bigbustours.com/new-york"
          },
          {
            "name": "TopView Sightseeing (Hop-on Hop-off)",
            "address": "Citywide stops",
            "website": "https://topviewnyc.com"
          },
          {
            "name": "High Line",
            "address": "Gansevoort St to W 34th St, New York, NY",
            "website": "https://www.thehighline.org",
            "note": "Elevated park with art, gardens, and Hudson River views."
          },
          {
            "name": "The Edge (Hudson Yards)",
            "address": "30 Hudson Yards, New York, NY 10001",
            "website": "https://www.edgenyc.com",
            "note": "100-story outdoor sky deck with glass floor and panoramic views.",
            "lat": 40.7539277,
            "lon": -74.0005544
          },
          {
            "name": "Times Square",
            "address": "Broadway & 7th Ave, New York, NY",
            "website": "https://www.timessquarenyc.org",
            "note": "Neon lights and giant screens—NYC’s bustling crossroads.",
            "lat": 40.7536955,
            "lon": -73.988712
          },
          {
            "name": "Empire State Building",
            "address": "20 W 34th St, New York, NY 10001",
            "website": "https://www.esbnyc.com",
            "note": "Iconic art-deco skyscraper with observation decks.",
            "lat": 40.7486538,
            "lon": -73.9853043
          },
          {
            "name": "Rockefeller Center",
            "address": "45 Rockefeller Plaza, New York, NY 10111",
            "website": "https://www.rockefellercenter.com",
            "note": "Home to Top of the Rock, Radio City, and the holiday tree.",
            "lat": 40.7592576,
            "lon": -73.9799569
          }
        ]
      },
      "lat": 40.7636838,
      "lon": -73.9709281
    },
    {
      "name": "Spring Fertility NYC",
      "address": "114 W 41st St, New York, NY 10036",
      "website": "https://springfertility.com",
      "categories": {
        "cafes": [
          {
            "name": "Culture Espresso",
            "address": "72 W 38th St, New York, NY",
            "phone": "(212) 302-0200",
            "website": "https://cultureespresso.com",
            "lat": 40.7518497,
            "lon": -73.9850613
          },
          {
            "name": "Blank Slate Coffee + Kitchen",
            "address": "121 Madison Ave, New York, NY",
            "phone": "(646) 360-3413",
            "website": "https://blankslatenyc.com",
            "lat": 40.7452911,
            "lon": -73.9845959
          }
        ],
        "restaurants": [
          {
            "name": "Eataly Flatiron (Aster Favorite)",
            "address": "200 5th Ave, New York, NY",
            "phone": "(212) 229-2560",
            "website": "https://www.eataly.com/us_en/stores/nyc-flatiron",
            "lat": 40.7421545,
            "lon": -73.9898646
          },
          {
            "name": "La Pecora Bianca (Bryant Park)",
            "address": "20 W 40th St, New York, NY",
            "phone": "(212) 540-7407",
            "website": "https://lapecorabianca.com",
            "lat": 40.7524169,
            "lon": -73.9825675
          }
        ],
        "pizza_bagels": [
          {
            "name": "NY Pizza Suprema",
            "address": "413 8th Ave, New York, NY",
            "phone": "(212) 594-8939",
            "website": "https://nypizzasuprema.com",
            "lat": 40.7501778,
            "lon": -73.9952685
          },
          {
            "name": "Liberty Bagels Midtown",
            "address": "260 W 35th St, New York, NY",
            "phone": "(646) 476-4343",
            "website": "https://libertybagels.com",
            "lat": 40.7524141,
            "lon": -73.9925766
          }
        ],
        "hidden_gems": [
          {
            "name": "Artists & Fleas (Chelsea Market)",
            "address": "88 10th Ave (inside), New York, NY",
            "website": "https://www.artistsandfleas.com/chelsea-market"
          },
          {
            "name": "MoMA Design Store (Midtown)",
            "address": "44 W 53rd St, New York, NY",
            "phone": "(212) 767-1050",
            "website": "https://store.moma.org",
            "lat": 40.7611682,
            "lon": -73.9779863
          },
          {
            "name": "CityStore (NYC Official)",
            "address": "1 Centre St, New York, NY",
            "phone": "(212) 386-0000",
            "website": "https://www.nyc.gov/citystore",
            "lat": 40.7130272,
            "lon": -74.0034742
          },
          {
            "name": "Levain Bakery (Rockefeller Center)",
            "address": "30 Rockefeller Plaza (Concourse), New York, NY",
            "phone": "(212) 834-2100",
            "website": "https://levainbakery.com"
          },
          {
            "name": "Magnolia Bakery (Bryant Park area)",
            "address": "1095 6th Ave, New York, NY",
            "phone": "(212) 767-1123",
            "website": "https://www.magnoliabakery.com",
            "lat": 40.7546492,
            "lon": -73.9848112
          },
          {
            "name": "Dominique Ansel Bakery (SoHo)",
            "address": "189 Spring St, New York, NY",
            "phone": "(212) 219-2773",
            "website": "https://dominiqueanselny.com",
            "lat": 40.7251997,
            "lon": -74.0029229
          },
          {
            "name": "Modern Bread & Bagel (100% GF)",
            "address": "472 Columbus Ave, New York, NY",
            "phone": "(646) 998-4600",
            "website": "https://modernbreadandbagel.com",
            "lat": 40.7844333,
            "lon": -73.9740436
          }
        ],
        "broadway_comedy": [
          {
            "name": "TKTS Times Square (under the Red Steps)",
            "address": "200 W 47th St, New York, NY 10036",
            "phone": "(212) 912-9770",
            "website": "https://www.tdf.org/discount-ticket-programs/tkts-by-tdf/tkts-live/",
            "note": "5–8 minutes’ walk; same-day deals.",
            "lat": 40.759195,
            "lon": -73.984833
          },
          {
            "name": "Broadway Comedy Club",
            "address": "318 W 53rd St, New York, NY",
            "phone": "(212) 757-2323",
            "website": "https://www.broadwaycomedyclub.com",
            "lat": 40.7644391,
            "lon": -73.9856707
          }
        ],
        "activities": [
          {
            "name": "Bryant Park Winter Village (seasonal)",
            "address": "6th Ave at 41st St, New York, NY",
            "website": "https://bryantpark.org"
          },
          {
            "name": "Broadway Theatres / Tickets",
            "address": "Times Sq & Theatre District, New York, NY",
            "website": "https://www.broadway.org",
            "lat": 40.7595077,
            "lon": -73.9841594
          }
        ],
        "iconic": [
          {
            "name": "MoMA – Museum of Modern Art",
            "address": "11 W 53rd St, New York, NY",
            "website": "https://www.moma.org",
            "lat": 40.7616124,
            "lon": -73.9774992
          },
          {
            "name": "American Museum of Natural History",
            "address": "200 Central Park West, New York, NY",
            "website": "https://www.amnh.org",
            "lat": 40.7813974,
            "lon": -73.9733215
          },
          {
            "name": "The Metropolitan Museum of Art",
            "address": "1000 5th Ave, New York, NY",
            "website": "https://www.metmuseum.org",
            "lat": 40.7794396,
            "lon": -73.9633825
          },
          {
            "name": "Statue of Liberty & Ellis Island (Statue City Cruises)",
            "address": "Battery Park, New York, NY",
            "website": "https://www.cityexperiences.com/new-york/city-cruises/statue/",
            "lat": 40.702786,
            "lon": -74.0157731
          },
          {
            "name": "Big Bus Tours NYC (Hop-on Hop-off)",
            "address": "Citywide stops",
            "website": "https://www.bigbustours.com/new-york"
          },
          {
            "name": "TopView Sightseeing (Hop-on Hop-off)",
            "address": "Citywide stops",
            "website": "https://topviewnyc.com"
          },
          {
            "name": "High Line",
            "address": "Gansevoort St to W 34th St, New York, NY",
            "website": "https://www.thehighline.org",
            "note": "Elevated park with art, gardens, and Hudson River views."
          },
          {
            "name": "The Edge (Hudson Yards)",
            "address": "30 Hudson Yards, New York, NY 10001",
            "website": "https://www.edgenyc.com",
            "note": "100-story outdoor sky deck with glass floor and panoramic views.",
            "lat": 40.7539277,
            "lon": -74.0005544
          },
          {
            "name": "Times Square",
            "address": "Broadway & 7th Ave, New York, NY",
            "website": "https://www.timessquarenyc.org",
            "note": "Neon lights and giant screens—NYC’s bustling crossroads.",
            "lat": 40.7536955,
            "lon": -73.988712
          },
          {
            "name": "Empire State Building",
            "address": "20 W 34th St, New York, NY 10001",
            "website": "https://www.esbnyc.com",
            "note": "Iconic art-deco skyscraper with observation decks.",
            "lat": 40.7486538,
            "lon": -73.9853043
          },
          {
            "name": "Rockefeller Center",
            "address": "45 Rockefeller Plaza, New York, NY 10111",
            "website": "https://www.rockefellercenter.com",
            "note": "Home to Top of the Rock, Radio City, and the holiday tree.",
            "lat": 40.7592576,
            "lon": -73.9799569
          }
        ]
      },
      "lat": 40.7544782,
      "lon": -73.9855838
    },
    {
      "name": "Global Fertility Partners",
      "address": "50 W 47th St, New York, NY 10036",
      "website": "https://globalfertilitypartners.com",
      "categories": {
        "cafes": [
          {
            "name": "Blue Bottle Coffee (Bryant Park)",
            "address": "54 W 40th St, New York, NY",
            "phone": "(510) 653-3394",
            "website": "https://bluebottlecoffee.com",
            "lat": 40.7529557,
            "lon": -73.9842411
          },
          {
            "name": "Maman Midtown",
            "address": "12 W 48th St, New York, NY",
            "phone": "(646) 476-7662",
            "website": "https://mamannyc.com",
            "lat": 40.7574073,
            "lon": -73.9791077
          }
        ],
        "restaurants": [
          {
            "name": "Carmine’s Italian Restaurant",
            "address": "200 W 44th St, New York, NY",
            "phone": "(212) 221-3800",
            "website": "https://carminesnyc.com",
            "lat": 40.7575108,
            "lon": -73.9867126
          },
          {
            "name": "Keens Steakhouse",
            "address": "72 W 36th St, New York, NY",
            "phone": "(212) 947-3636",
            "website": "https://keens.com",
            "lat": 40.750773,
            "lon": -73.9864091
          }
        ],
        "pizza_bagels": [
          {
            "name": "Patzeria Perfect Pizza",
            "address": "231 W 46th St, New York, NY",
            "phone": "(212) 575-7646",
            "website": "https://patzeriaperfectpizza.com",
            "lat": 40.7594345,
            "lon": -73.9868675
          },
          {
            "name": "Best Bagel & Coffee",
            "address": "225 W 35th St, New York, NY",
            "phone": "(212) 564-4409",
            "website": "https://bestbagelandcoffee.com",
            "lat": 40.7523015,
            "lon": -73.9910004
          }
        ],
        "hidden_gems": [
          {
            "name": "MoMA Design Store (Midtown)",
            "address": "44 W 53rd St, New York, NY",
            "phone": "(212) 767-1050",
            "website": "https://store.moma.org",
            "lat": 40.7611682,
            "lon": -73.9779863
          },
          {
            "name": "Artists & Fleas (Chelsea Market)",
            "address": "88 10th Ave (inside), New York, NY",
            "website": "https://www.artistsandfleas.com/chelsea-market"
          },
          {
            "name": "NY Transit Museum Store (Grand Central)",
            "address": "89 E 42nd St, New York, NY",
            "phone": "(212) 878-0106",
            "website": "https://shop.nytransitmuseumstore.com",
            "lat": 40.7526944,
            "lon": -73.977253
          },
          {
            "name": "Levain Bakery (Rockefeller Center)",
            "address": "30 Rockefeller Plaza (Concourse), New York, NY",
            "phone": "(212) 834-2100",
            "website": "https://levainbakery.com"
          },
          {
            "name": "Friedmans (Chelsea Market) – GF-friendly",
            "address": "75 9th Ave, New York, NY",
            "phone": "(212) 929-7100",
            "website": "https://www.friedmansrestaurant.com",
            "lat": 40.7420513,
            "lon": -74.0048973
          }
        ],
        "broadway_comedy": [
          {
            "name": "TKTS Times Square (under the Red Steps)",
            "address": "200 W 47th St, New York, NY 10036",
            "phone": "(212) 912-9770",
            "website": "https://www.tdf.org/discount-ticket-programs/tkts-by-tdf/tkts-live/",
            "note": "2–4 minutes’ walk; check live board for discounts.",
            "lat": 40.759195,
            "lon": -73.984833
          },
          {
            "name": "Gotham Comedy Club",
            "address": "208 W 23rd St, New York, NY",
            "phone": "(212) 367-9000",
            "website": "https://gothamcomedyclub.com",
            "lat": 40.7441378,
            "lon": -73.99644
          }
        ],
        "activities": [
          {
            "name": "Radio City Music Hall",
            "address": "1260 6th Ave, New York, NY",
            "website": "https://radiocity.com",
            "lat": 40.7601258,
            "lon": -73.9800192
          },
          {
            "name": "Top of the Rock (Observation Deck)",
            "address": "30 Rockefeller Plaza, New York, NY",
            "website": "https://rockefellercenter.com",
            "lat": 40.7591232,
            "lon": -73.979556
          }
        ],
        "iconic": [
          {
            "name": "MoMA – Museum of Modern Art",
            "address": "11 W 53rd St, New York, NY",
            "website": "https://www.moma.org",
            "lat": 40.7616124,
            "lon": -73.9774992
          },
          {
            "name": "American Museum of Natural History",
            "address": "200 Central Park West, New York, NY",
            "website": "https://www.amnh.org",
            "lat": 40.7813974,
            "lon": -73.9733215
          },
          {
            "name": "The Metropolitan Museum of Art",
            "address": "1000 5th Ave, New York, NY",
            "website": "https://www.metmuseum.org",
            "lat": 40.7794396,
            "lon": -73.9633825
          },
          {
            "name": "Statue of Liberty & Ellis Island (Statue City Cruises)",
            "address": "Battery Park, New York, NY",
            "website": "https://www.cityexperiences.com/new-york/city-cruises/statue/",
            "lat": 40.702786,
            "lon": -74.0157731
          },
          {
            "name": "Big Bus Tours NYC (Hop-on Hop-off)",
            "address": "Citywide stops",
            "website": "https://www.bigbustours.com/new-york"
          },
          {
            "name": "TopView Sightseeing (Hop-on Hop-off)",
            "address": "Citywide stops",
            "website": "https://topviewnyc.com"
          },
          {
            "name": "High Line",
            "address": "Gansevoort St to W 34th St, New York, NY",
            "website": "https://www.thehighline.org",
            "note": "Elevated park with art, gardens, and Hudson River views."
          },
          {
            "name": "The Edge (Hudson Yards)",
            "address": "30 Hudson Yards, New York, NY 10001",
            "website": "https://www.edgenyc.com",
            "note": "100-story outdoor sky deck with glass floor and panoramic views.",
            "lat": 40.7539277,
            "lon": -74.0005544
          },
          {
            "name": "Times Square",
            "address": "Broadway & 7th Ave, New York, NY",
            "website": "https://www.timessquarenyc.org",
            "note": "Neon lights and giant screens—NYC’s bustling crossroads.",
            "lat": 40.7536955,
            "lon": -73.988712
          },
          {
            "name": "Empire State Building",
            "address": "20 W 34th St, New York, NY 10001",
            "website": "https://www.esbnyc.com",
            "note": "Iconic art-deco skyscraper with observation decks.",
            "lat": 40.7486538,
            "lon": -73.9853043
          },
          {
            "name": "Rockefeller Center",
            "address": "45 Rockefeller Plaza, New York, NY 10111",
            "website": "https://www.rockefellercenter.com",
            "note": "Home to Top of the Rock, Radio City, and the holiday tree.",
            "lat": 40.7592576,
            "lon": -73.9799569
          }
        ]
      },
      "lat": 40.7574915,
      "lon": -73.9808385
    },
    {
      "name": "Kofinas Fertility Group",
      "address": "65 Broadway, New York, NY 10006",
      "website": "https://kofinasfertility.com",
      "categories": {
        "cafes": [
          {
            "name": "Blue Spoon Coffee Company",
            "address": "90 William St, New York, NY",
            "phone": "(646) 924-6038",
            "website": "https://bluespooncoffee.com",
            "lat": 40.708081,
            "lon": -74.0074766
          },
          {
            "name": "Black Fox Coffee",
            "address": "70 Pine St, New York, NY",
            "phone": "(212) 785-5650",
            "website": "https://blackfoxcoffee.com",
            "lat": 40.7064733,
            "lon": -74.0077415
          }
        ],
        "restaurants": [
          {
            "name": "Delmonico’s",
            "address": "56 Beaver St, New York, NY",
            "phone": "(212) 509-1144",
            "website": "https://delmonicos.com",
            "lat": 40.705042,
            "lon": -74.0102055
          },
          {
            "name": "Luke’s Lobster FiDi",
            "address": "26 S William St, New York, NY",
            "phone": "(212) 747-1700",
            "website": "https://lukeslobster.com",
            "lat": 40.7045322,
            "lon": -74.0109178
          }
        ],
        "pizza_bagels": [
          {
            "name": "Adrienne’s Pizzabar",
            "address": "54 Stone St, New York, NY",
            "phone": "(212) 248-3838",
            "website": "https://adriennespizzabar.com",
            "lat": 40.7042918,
            "lon": -74.0101218
          },
          {
            "name": "Leo’s Bagels",
            "address": "3 Hanover Square, New York, NY",
            "phone": "(212) 785-4700",
            "website": "https://leosbagels.com",
            "lat": 40.7050279,
            "lon": -74.0096264
          }
        ],
        "hidden_gems": [
          {
            "name": "CityStore (NYC Official)",
            "address": "1 Centre St, New York, NY",
            "phone": "(212) 386-0000",
            "website": "https://www.nyc.gov/citystore",
            "lat": 40.7130272,
            "lon": -74.0034742
          },
          {
            "name": "New York Transit Museum (Museum & Store)",
            "address": "99 Schermerhorn St, Brooklyn, NY",
            "phone": "(718) 694-1600",
            "website": "https://www.nytransitmuseum.org",
            "lat": 40.6905176,
            "lon": -73.9899802
          },
          {
            "name": "Artists & Fleas (Seaport/Chelsea)",
            "address": "89 South St (seasonal) or 88 10th Ave, New York, NY",
            "website": "https://www.artistsandfleas.com"
          },
          {
            "name": "Levain Bakery (NoHo)",
            "address": "340 Lafayette St, New York, NY",
            "phone": "(917) 764-5705",
            "website": "https://levainbakery.com",
            "lat": 40.7262725,
            "lon": -73.9946961
          },
          {
            "name": "Magnolia Bakery (Fulton Center)",
            "address": "200 Broadway, New York, NY",
            "phone": "(212) 350-0978",
            "website": "https://www.magnoliabakery.com",
            "lat": 40.7104439,
            "lon": -74.0089465
          },
          {
            "name": "Erin McKenna’s Bakery NYC (100% GF)",
            "address": "248 Broome St, New York, NY",
            "phone": "(855) 462-2292",
            "website": "https://www.erinmckennasbakery.com",
            "lat": 40.7181267,
            "lon": -73.9896117
          }
        ],
        "broadway_comedy": [
          {
            "name": "TKTS Times Square (under the Red Steps)",
            "address": "200 W 47th St, New York, NY 10036",
            "phone": "(212) 912-9770",
            "website": "https://www.tdf.org/discount-ticket-programs/tkts-by-tdf/tkts-live/",
            "note": "Closest active TKTS (~20–25 min by subway).",
            "lat": 40.759195,
            "lon": -73.984833
          },
          {
            "name": "New York Comedy Club – East Village",
            "address": "85 E 4th St, New York, NY",
            "phone": "(212) 477-5233",
            "website": "https://newyorkcomedyclub.com",
            "lat": 40.7265891,
            "lon": -73.9898025
          }
        ],
        "activities": [
          {
            "name": "Battery Park",
            "address": "State St & Battery Pl, New York, NY",
            "website": "https://www.nycgovparks.org/parks/battery-park",
            "lat": 40.7043931,
            "lon": -74.0141411
          },
          {
            "name": "One World Observatory",
            "address": "117 West St, New York, NY",
            "website": "https://oneworldobservatory.com",
            "lat": 40.7138389,
            "lon": -74.0135131
          }
        ],
        "iconic": [
          {
            "name": "MoMA – Museum of Modern Art",
            "address": "11 W 53rd St, New York, NY",
            "website": "https://www.moma.org",
            "lat": 40.7616124,
            "lon": -73.9774992
          },
          {
            "name": "American Museum of Natural History",
            "address": "200 Central Park West, New York, NY",
            "website": "https://www.amnh.org",
            "lat": 40.7813974,
            "lon": -73.9733215
          },
          {
            "name": "The Metropolitan Museum of Art",
            "address": "1000 5th Ave, New York, NY",
            "website": "https://www.metmuseum.org",
            "lat": 40.7794396,
            "lon": -73.9633825
          },
          {
            "name": "Statue of Liberty & Ellis Island (Statue City Cruises)",
            "address": "Battery Park, New York, NY",
            "website": "https://www.cityexperiences.com/new-york/city-cruises/statue/",
            "lat": 40.702786,
            "lon": -74.0157731
          },
          {
            "name": "Big Bus Tours NYC (Hop-on Hop-off)",
            "address": "Citywide stops",
            "website": "https://www.bigbustours.com/new-york"
          },
          {
            "name": "TopView Sightseeing (Hop-on Hop-off)",
            "address": "Citywide stops",
            "website": "https://topviewnyc.com"
          },
          {
            "name": "High Line",
            "address": "Gansevoort St to W 34th St, New York, NY",
            "website": "https://www.thehighline.org",
            "note": "Elevated park with art, gardens, and Hudson River views."
          },
          {
            "name": "The Edge (Hudson Yards)",
            "address": "30 Hudson Yards, New York, NY 10001",
            "website": "https://www.edgenyc.com",
            "note": "100-story outdoor sky deck with glass floor and panoramic views.",
            "lat": 40.7539277,
            "lon": -74.0005544
          },
          {
            "name": "Times Square",
            "address": "Broadway & 7th Ave, New York, NY",
            "website": "https://www.timessquarenyc.org",
            "note": "Neon lights and giant screens—NYC’s bustling crossroads.",
            "lat": 40.7536955,
            "lon": -73.988712
          },
          {
            "name": "Empire State Building",
            "address": "20 W 34th St, New York, NY 10001",
            "website": "https://www.esbnyc.com",
            "note": "Iconic art-deco skyscraper with observation decks.",
            "lat": 40.7486538,
            "lon": -73.9853043
          },
          {
            "name": "Rockefeller Center",
            "address": "45 Rockefeller Plaza, New York, NY 10111",
            "website": "https://www.rockefellercenter.com",
            "note": "Home to Top of the Rock, Radio City, and the holiday tree.",
            "lat": 40.7592576,
            "lon": -73.9799569
          }
        ]
      },
      "lat": 40.7071798,
      "lon": -74.0123457
    },
    {
      "name": "Weill Cornell Medicine (1305 York Ave)",
      "address": "1305 York Ave, New York, NY 10021",
      "website": "https://weillcornell.org",
      "categories": {
        "cafes": [
          {
            "name": "Maman UES",
            "address": "1424 3rd Ave, New York, NY",
            "phone": "(917) 675-7667",
            "website": "https://mamannyc.com",
            "lat": 40.7755174,
            "lon": -73.9566349
          },
          {
            "name": "Bluestone Lane (UES Café)",
            "address": "2 E 90th St, New York, NY",
            "phone": "(718) 374-6858",
            "website": "https://bluestonelane.com",
            "lat": 40.7836928,
            "lon": -73.9578694
          }
        ],
        "restaurants": [
          {
            "name": "Finestra",
            "address": "1370 York Ave, New York, NY",
            "phone": "(212) 249-2941",
            "website": "https://finestrarestaurant.com",
            "lat": 40.7675579,
            "lon": -73.9529698
          },
          {
            "name": "Uva Wine Bar",
            "address": "1486 2nd Ave, New York, NY",
            "phone": "(212) 472-4552",
            "website": "https://uvawinebar.com",
            "lat": 40.7721739,
            "lon": -73.9555966
          }
        ],
        "pizza_bagels": [
          {
            "name": "Patsy’s Pizzeria (UES)",
            "address": "206 E 60th St, New York, NY",
            "phone": "(212) 688-9707",
            "website": "https://patsyspizzeria.us",
            "lat": 40.7617493,
            "lon": -73.9657628
          },
          {
            "name": "Tal Bagels",
            "address": "1228 Lexington Ave, New York, NY",
            "phone": "(212) 410-4313",
            "website": "https://talbagels.com",
            "lat": 40.7777126,
            "lon": -73.9570936
          }
        ],
        "hidden_gems": [
          {
            "name": "MoMA Design Store (Midtown)",
            "address": "44 W 53rd St, New York, NY",
            "phone": "(212) 767-1050",
            "website": "https://store.moma.org",
            "lat": 40.7611682,
            "lon": -73.9779863
          },
          {
            "name": "Mure + Grand (SoHo)",
            "address": "472 Broadway, New York, NY",
            "phone": "(646) 850-0330",
            "website": "https://mureandgrand.com",
            "lat": 40.7210989,
            "lon": -74.0000704
          },
          {
            "name": "Pink Olive",
            "address": "30 E 9th St, New York, NY",
            "phone": "(212) 780-0030",
            "website": "https://pinkolive.com",
            "lat": 40.7319966,
            "lon": -73.9941487
          },
          {
            "name": "Levain Bakery (UES)",
            "address": "1484 3rd Ave, New York, NY",
            "phone": "(917) 470-9041",
            "website": "https://levainbakery.com",
            "lat": 40.7773502,
            "lon": -73.9552986
          },
          {
            "name": "Modern Bread & Bagel (100% GF)",
            "address": "472 Columbus Ave, New York, NY",
            "phone": "(646) 998-4600",
            "website": "https://modernbreadandbagel.com",
            "lat": 40.7844333,
            "lon": -73.9740436
          }
        ],
        "broadway_comedy": [
          {
            "name": "TKTS Lincoln Center (David Rubenstein Atrium)",
            "address": "61 W 62nd St, New York, NY 10023",
            "phone": "(212) 912-9770",
            "website": "https://www.tdf.org/discount-ticket-programs/tkts-by-tdf/tkts-live/",
            "note": "~1 mile from 1305 York; easy crosstown.",
            "lat": 40.7711324,
            "lon": -73.982845
          },
          {
            "name": "Comic Strip Live",
            "address": "1568 2nd Ave, New York, NY",
            "phone": "(212) 861-9386",
            "website": "https://comicstriplive.com",
            "lat": 40.7748581,
            "lon": -73.9536956
          }
        ],
        "activities": [
          {
            "name": "The Met Museum",
            "address": "1000 5th Ave, New York, NY",
            "website": "https://metmuseum.org",
            "lat": 40.7794396,
            "lon": -73.9633825
          },
          {
            "name": "Guggenheim Museum",
            "address": "1071 5th Ave, New York, NY",
            "website": "https://guggenheim.org",
            "lat": 40.7829932,
            "lon": -73.958925
          }
        ],
        "iconic": [
          {
            "name": "MoMA – Museum of Modern Art",
            "address": "11 W 53rd St, New York, NY",
            "website": "https://www.moma.org",
            "lat": 40.7616124,
            "lon": -73.9774992
          },
          {
            "name": "American Museum of Natural History",
            "address": "200 Central Park West, New York, NY",
            "website": "https://www.amnh.org",
            "lat": 40.7813974,
            "lon": -73.9733215
          },
          {
            "name": "The Metropolitan Museum of Art",
            "address": "1000 5th Ave, New York, NY",
            "website": "https://www.metmuseum.org",
            "lat": 40.7794396,
            "lon": -73.9633825
          },
          {
            "name": "Statue of Liberty & Ellis Island (Statue City Cruises)",
            "address": "Battery Park, New York, NY",
            "website": "https://www.cityexperiences.com/new-york/city-cruises/statue/",
            "lat": 40.702786,
            "lon": -74.0157731
          },
          {
            "name": "Big Bus Tours NYC (Hop-on Hop-off)",
            "address": "Citywide stops",
            "website": "https://www.bigbustours.com/new-york"
          },
          {
            "name": "TopView Sightseeing (Hop-on Hop-off)",
            "address": "Citywide stops",
            "website": "https://topviewnyc.com"
          },
          {
            "name": "High Line",
            "address": "Gansevoort St to W 34th St, New York, NY",
            "website": "https://www.thehighline.org",
            "note": "Elevated park with art, gardens, and Hudson River views."
          },
          {
            "name": "The Edge (Hudson Yards)",
            "address": "30 Hudson Yards, New York, NY 10001",
            "website": "https://www.edgenyc.com",
            "note": "100-story outdoor sky deck with glass floor and panoramic views.",
            "lat": 40.7539277,
            "lon": -74.0005544
          },
          {
            "name": "Times Square",
            "address": "Broadway & 7th Ave, New York, NY",
            "website": "https://www.timessquarenyc.org",
            "note": "Neon lights and giant screens—NYC’s bustling crossroads.",
            "lat": 40.7536955,
            "lon": -73.988712
          },
          {
            "name": "Empire State Building",
            "address": "20 W 34th St, New York, NY 10001",
            "website": "https://www.esbnyc.com",
            "note": "Iconic art-deco skyscraper with observation decks.",
            "lat": 40.7486538,
            "lon": -73.9853043
          },
          {
            "name": "Rockefeller Center",
            "address": "45 Rockefeller Plaza, New York, NY 10111",
            "website": "https://www.rockefellercenter.com",
            "note": "Home to Top of the Rock, Radio City, and the holiday tree.",
            "lat": 40.7592576,
            "lon": -73.9799569
          }
        ]
      },
      "lat": 40.7655396,
      "lon": -73.9553023
    },
    {
      "name": "Illume Fertility (NYC)",
      "address": "30 E 60th St, New York, NY 10022",
      "website": "https://illumefertility.com",
      "categories": {
        "cafes": [
          {
            "name": "Joe & The Juice",
            "address": "667 Lexington Ave, New York, NY",
            "phone": "(646) 370-4645",
            "website": "https://joejuice.com",
            "lat": 40.689824,
            "lon": -73.934302
          },
          {
            "name": "Blue Bottle Coffee",
            "address": "10 E 53rd St, New York, NY",
            "phone": "(212) 375-0100",
            "website": "https://bluebottlecoffee.com",
            "lat": 40.7597879,
            "lon": -73.9752965
          }
        ],
        "restaurants": [
          {
            "name": "Il Postino",
            "address": "337 E 49th St, New York, NY",
            "phone": "(212) 688-0033",
            "website": "https://ilpostinonyc.com",
            "lat": 40.7538443,
            "lon": -73.9673928
          },
          {
            "name": "La Pecora Bianca (Midtown East)",
            "address": "950 2nd Ave, New York, NY",
            "phone": "(212) 599-2019",
            "website": "https://lapecorabianca.com",
            "lat": 40.7549287,
            "lon": -73.9682465
          }
        ],
        "pizza_bagels": [
          {
            "name": "San Matteo Pizza Espresso Bar",
            "address": "1739 2nd Ave, New York, NY",
            "phone": "(212) 426-6943",
            "website": "https://sanmatteopizzany.com",
            "lat": 40.7804043,
            "lon": -73.9501234
          },
          {
            "name": "Ess-a-Bagel (Midtown East)",
            "address": "831 3rd Ave, New York, NY",
            "phone": "(212) 980-1010",
            "website": "https://www.ess-a-bagel.com",
            "lat": 40.7561558,
            "lon": -73.9701715
          }
        ],
        "hidden_gems": [
          {
            "name": "Fishs Eddy",
            "address": "889 Broadway @ 19th St, New York, NY",
            "phone": "(212) 420-9020",
            "website": "https://www.fishseddy.com"
          },
          {
            "name": "Greenwich Letterpress",
            "address": "15 Christopher St, New York, NY",
            "phone": "(212) 219-8169",
            "website": "https://greenwichletterpress.com",
            "lat": 40.7340651,
            "lon": -74.0005609
          },
          {
            "name": "Sunday Forever (studio/showroom)",
            "address": "3 W 29th St, Fl 2, New York, NY",
            "website": "https://sundayforever.com"
          },
          {
            "name": "MoMA Design Store (Midtown)",
            "address": "44 W 53rd St, New York, NY",
            "phone": "(212) 767-1050",
            "website": "https://store.moma.org",
            "lat": 40.7611682,
            "lon": -73.9779863
          },
          {
            "name": "Levain Bakery (Rockefeller Center)",
            "address": "30 Rockefeller Plaza (Concourse), New York, NY",
            "phone": "(212) 834-2100",
            "website": "https://levainbakery.com"
          },
          {
            "name": "Senza Gluten Café & Bakery (100% GF)",
            "address": "171 Sullivan St, New York, NY",
            "phone": "(646) 692-6424",
            "website": "https://senzaglutennyc.com",
            "lat": 40.7279573,
            "lon": -74.000839
          }
        ],
        "broadway_comedy": [
          {
            "name": "TKTS Lincoln Center (David Rubenstein Atrium)",
            "address": "61 W 62nd St, New York, NY 10023",
            "phone": "(212) 912-9770",
            "website": "https://www.tdf.org/discount-ticket-programs/tkts-by-tdf/tkts-live/",
            "note": "Closest TKTS; quick crosstown ride.",
            "lat": 40.7711324,
            "lon": -73.982845
          },
          {
            "name": "The Stand NYC",
            "address": "116 E 16th St, New York, NY",
            "phone": "(212) 677-2600",
            "website": "https://thestandnyc.com",
            "lat": 40.7353379,
            "lon": -73.988463
          }
        ],
        "activities": [
          {
            "name": "Park Avenue Armory",
            "address": "643 Park Ave, New York, NY",
            "website": "https://armoryonpark.org",
            "lat": 40.7672333,
            "lon": -73.9655036
          },
          {
            "name": "Central Park (East)",
            "address": "5th Ave & 60th St Entrances, New York, NY",
            "website": "https://centralparknyc.org"
          }
        ],
        "iconic": [
          {
            "name": "MoMA – Museum of Modern Art",
            "address": "11 W 53rd St, New York, NY",
            "website": "https://www.moma.org",
            "lat": 40.7616124,
            "lon": -73.9774992
          },
          {
            "name": "American Museum of Natural History",
            "address": "200 Central Park West, New York, NY",
            "website": "https://www.amnh.org",
            "lat": 40.7813974,
            "lon": -73.9733215
          },
          {
            "name": "The Metropolitan Museum of Art",
            "address": "1000 5th Ave, New York, NY",
            "website": "https://www.metmuseum.org",
            "lat": 40.7794396,
            "lon": -73.9633825
          },
          {
            "name": "Statue of Liberty & Ellis Island (Statue City Cruises)",
            "address": "Battery Park, New York, NY",
            "website": "https://www.cityexperiences.com/new-york/city-cruises/statue/",
            "lat": 40.702786,
            "lon": -74.0157731
          },
          {
            "name": "Big Bus Tours NYC (Hop-on Hop-off)",
            "address": "Citywide stops",
            "website": "https://www.bigbustours.com/new-york"
          },
          {
            "name": "TopView Sightseeing (Hop-on Hop-off)",
            "address": "Citywide stops",
            "website": "https://topviewnyc.com"
          },
          {
            "name": "High Line",
            "address": "Gansevoort St to W 34th St, New York, NY",
            "website": "https://www.thehighline.org",
            "note": "Elevated park with art, gardens, and Hudson River views."
          },
          {
            "name": "The Edge (Hudson Yards)",
            "address": "30 Hudson Yards, New York, NY 10001",
            "website": "https://www.edgenyc.com",
            "note": "100-story outdoor sky deck with glass floor and panoramic views.",
            "lat": 40.7539277,
            "lon": -74.0005544
          },
          {
            "name": "Times Square",
            "address": "Broadway & 7th Ave, New York, NY",
            "website": "https://www.timessquarenyc.org",
            "note": "Neon lights and giant screens—NYC’s bustling crossroads.",
            "lat": 40.7536955,
            "lon": -73.988712
          },
          {
            "name": "Empire State Building",
            "address": "20 W 34th St, New York, NY 10001",
            "website": "https://www.esbnyc.com",
            "note": "Iconic art-deco skyscraper with observation decks.",
            "lat": 40.7486538,
            "lon": -73.9853043
          },
          {
            "name": "Rockefeller Center",
            "address": "45 Rockefeller Plaza, New York, NY 10111",
            "website": "https://www.rockefellercenter.com",
            "note": "Home to Top of the Rock, Radio City, and the holiday tree.",
            "lat": 40.7592576,
            "lon": -73.9799569
          }
        ]
      },
      "lat": 40.7636761,
      "lon": -73.9703259
    },
    {
      "name": "Summit Fertility",
      "address": "635 Madison Ave, New York, NY 10022",
      "website": "https://summitfertilityny.com",
      "categories": {
        "cafes": [
          {
            "name": "Birch Coffee",
            "address": "134 E 62nd St, New York, NY",
            "phone": "(212) 686-1444",
            "website": "https://birchcoffee.com",
            "lat": 40.7641004,
            "lon": -73.9673216
          },
          {
            "name": "Ralph’s Coffee",
            "address": "888 Madison Ave, New York, NY",
            "phone": "(212) 434-8000",
            "website": "https://ralphlauren.com/ralphs-coffee",
            "lat": 40.7716285,
            "lon": -73.9657301
          }
        ],
        "restaurants": [
          {
            "name": "Avra Madison Estiatorio",
            "address": "14 E 60th St, New York, NY",
            "phone": "(212) 937-0100",
            "website": "https://theavragroup.com",
            "lat": 40.7643033,
            "lon": -73.9716079
          },
          {
            "name": "Serafina Always",
            "address": "1022 Madison Ave, New York, NY",
            "phone": "(212) 734-2676",
            "website": "https://serafinarestaurant.com",
            "lat": 40.7761112,
            "lon": -73.9624638
          }
        ],
        "pizza_bagels": [
          {
            "name": "Joe’s Pizza (Midtown)",
            "address": "1435 Broadway, New York, NY",
            "phone": "(212) 391-9500",
            "website": "https://www.joespizzanyc.com",
            "lat": 40.754705,
            "lon": -73.9870157
          },
          {
            "name": "Pick A Bagel (Midtown East)",
            "address": "891 Lexington Ave, New York, NY",
            "phone": "(212) 223-7061",
            "website": "https://pickabagel.net",
            "lat": 40.6907916,
            "lon": -73.9252418
          }
        ],
        "hidden_gems": [
          {
            "name": "MoMA Design Store (Midtown)",
            "address": "44 W 53rd St, New York, NY",
            "phone": "(212) 767-1050",
            "website": "https://store.moma.org",
            "lat": 40.7611682,
            "lon": -73.9779863
          },
          {
            "name": "Mure + Grand (SoHo)",
            "address": "472 Broadway, New York, NY",
            "phone": "(646) 850-0330",
            "website": "https://mureandgrand.com",
            "lat": 40.7210989,
            "lon": -74.0000704
          },
          {
            "name": "Pink Olive",
            "address": "30 E 9th St, New York, NY",
            "phone": "(212) 780-0030",
            "website": "https://pinkolive.com",
            "lat": 40.7319966,
            "lon": -73.9941487
          },
          {
            "name": "Levain Bakery (UES)",
            "address": "1484 3rd Ave, New York, NY",
            "phone": "(917) 470-9041",
            "website": "https://levainbakery.com",
            "lat": 40.7773502,
            "lon": -73.9552986
          },
          {
            "name": "Magnolia Bakery (Rockefeller Center)",
            "address": "1240 6th Ave, New York, NY",
            "phone": "(212) 767-1123",
            "website": "https://www.magnoliabakery.com",
            "lat": 40.7592602,
            "lon": -73.9805486
          },
          {
            "name": "Modern Bread & Bagel (100% GF)",
            "address": "472 Columbus Ave, New York, NY",
            "phone": "(646) 998-4600",
            "website": "https://modernbreadandbagel.com",
            "lat": 40.7844333,
            "lon": -73.9740436
          }
        ],
        "broadway_comedy": [
          {
            "name": "TKTS Lincoln Center (David Rubenstein Atrium)",
            "address": "61 W 62nd St, New York, NY 10023",
            "phone": "(212) 912-9770",
            "website": "https://www.tdf.org/discount-ticket-programs/tkts-by-tdf/tkts-live/",
            "note": "Quick ride or 15–20 min walk from Madison/63rd.",
            "lat": 40.7711324,
            "lon": -73.982845
          },
          {
            "name": "Stand Up NY",
            "address": "236 W 78th St, New York, NY",
            "phone": "(212) 595-0850",
            "website": "https://standupny.com",
            "lat": 40.7828011,
            "lon": -73.9801773
          }
        ],
        "activities": [
          {
            "name": "Central Park Zoo",
            "address": "E 64th St, New York, NY",
            "website": "https://centralparkzoo.com",
            "lat": 40.7650694,
            "lon": -73.9652104
          },
          {
            "name": "Bloomingdale’s Flagship",
            "address": "1000 3rd Ave, New York, NY",
            "website": "https://bloomingdales.com",
            "lat": 40.7623629,
            "lon": -73.9662333
          }
        ],
        "iconic": [
          {
            "name": "MoMA – Museum of Modern Art",
            "address": "11 W 53rd St, New York, NY",
            "website": "https://www.moma.org",
            "lat": 40.7616124,
            "lon": -73.9774992
          },
          {
            "name": "American Museum of Natural History",
            "address": "200 Central Park West, New York, NY",
            "website": "https://www.amnh.org",
            "lat": 40.7813974,
            "lon": -73.9733215
          },
          {
            "name": "The Metropolitan Museum of Art",
            "address": "1000 5th Ave, New York, NY",
            "website": "https://www.metmuseum.org",
            "lat": 40.7794396,
            "lon": -73.9633825
          },
          {
            "name": "Statue of Liberty & Ellis Island (Statue City Cruises)",
            "address": "Battery Park, New York, NY",
            "website": "https://www.cityexperiences.com/new-york/city-cruises/statue/",
            "lat": 40.702786,
            "lon": -74.0157731
          },
          {
            "name": "Big Bus Tours NYC (Hop-on Hop-off)",
            "address": "Citywide stops",
            "website": "https://www.bigbustours.com/new-york"
          },
          {
            "name": "TopView Sightseeing (Hop-on Hop-off)",
            "address": "Citywide stops",
            "website": "https://topviewnyc.com"
          },
          {
            "name": "High Line",
            "address": "Gansevoort St to W 34th St, New York, NY",
            "website": "https://www.thehighline.org",
            "note": "Elevated park with art, gardens, and Hudson River views."
          },
          {
            "name": "The Edge (Hudson Yards)",
            "address": "30 Hudson Yards, New York, NY 10001",
            "website": "https://www.edgenyc.com",
            "note": "100-story outdoor sky deck with glass floor and panoramic views.",
            "lat": 40.7539277,
            "lon": -74.0005544
          },
          {
            "name": "Times Square",
            "address": "Broadway & 7th Ave, New York, NY",
            "website": "https://www.timessquarenyc.org",
            "note": "Neon lights and giant screens—NYC’s bustling crossroads.",
            "lat": 40.7536955,
            "lon": -73.988712
          },
          {
            "name": "Empire State Building",
            "address": "20 W 34th St, New York, NY 10001",
            "website": "https://www.esbnyc.com",
            "note": "Iconic art-deco skyscraper with observation decks.",
            "lat": 40.7486538,
            "lon": -73.9853043
          },
          {
            "name": "Rockefeller Center",
            "address": "45 Rockefeller Plaza, New York, NY 10111",
            "website": "https://www.rockefellercenter.com",
            "note": "Home to Top of the Rock, Radio City, and the holiday tree.",
            "lat": 40.7592576,
            "lon": -73.9799569
          }
        ]
      },
      "lat": 40.7636838,
      "lon": -73.9709281
    }
  ],
  "mustSees": []
}
